City_ID,City,Lat,Lng,Max Temp,Humidity,Cloudiness,Wind Speed,Country,Date
0,atuona,-9.8,-139.0333,78.13,78,15,18.1,PF,1635042357
1,souillac,-20.5167,57.5167,75.36,83,40,11.5,MU,1635042406
2,tuktoyaktuk,69.4541,-133.0374,30.2,86,90,4.61,CA,1635042408
3,zhob,31.3411,69.4481,54.82,60,0,4.45,PK,1635042411
4,mahebourg,-20.4081,57.7,75.25,83,40,11.5,MU,1635042413
5,dunedin,-45.8742,170.5036,60.8,71,87,7.0,NZ,1635042366
6,cape town,-33.9258,18.4232,55.11,75,20,6.91,ZA,1635042166
7,busselton,-33.65,115.3333,76.05,58,99,6.35,AU,1635042234
8,fuerte olimpo,-21.0415,-57.8738,72.5,95,100,15.28,PY,1635042426
9,punta arenas,-53.15,-70.9167,37.51,81,20,17.27,CL,1635042253
10,cidreira,-30.1811,-50.2056,64.92,93,100,10.18,BR,1635042430
11,laguna,38.421,-121.4238,63.05,75,90,6.91,US,1635042338
12,provideniya,64.3833,-173.3,25.07,78,100,8.25,RU,1635042435
13,rikitea,-23.1203,-134.9692,74.91,80,100,19.13,PF,1635042224
14,vao,-22.6667,167.4833,72.52,74,3,13.31,NC,1635042439
15,hermanus,-34.4187,19.2345,53.91,70,26,3.51,ZA,1635042443
16,chuy,-33.6971,-53.4616,54.63,95,56,6.87,UY,1635042446
17,gidole,5.65,37.3667,58.32,66,47,2.8,ET,1635042448
18,rockland,41.1668,-74.0496,55.65,83,100,4.9,US,1635042450
19,ust-nera,64.5667,143.2,6.37,93,86,5.3,RU,1635042453
20,mossendjo,-2.9506,12.7261,69.1,100,100,1.48,CG,1635042455
21,albany,42.6001,-73.9662,47.8,77,83,1.01,US,1635042240
22,victoria,22.2855,114.1577,74.03,71,13,1.01,HK,1635042459
23,bama,11.5221,13.6856,78.31,34,21,5.59,NG,1635042462
24,otradnoye,59.7775,30.8181,34.56,89,84,9.01,RU,1635042464
25,labuhan,-6.8844,112.2051,87.19,61,57,2.89,ID,1635042380
26,vaini,-21.2,-175.2,78.96,73,20,9.22,TO,1635042469
27,baykit,61.67,96.37,34.57,96,100,8.88,RU,1635042471
28,taoudenni,22.6783,-3.9836,81.01,22,0,7.74,ML,1635042473
29,pangnirtung,66.1451,-65.7125,23.45,85,98,5.66,CA,1635042476
30,kodiak,57.79,-152.4072,43.34,84,97,24.2,US,1635042478
31,ushuaia,-54.8,-68.3,33.46,86,75,12.66,AR,1635042226
32,egvekinot,66.3167,-179.1667,11.43,85,100,6.2,RU,1635042482
33,rio cuarto,-33.1307,-64.3499,45.84,36,0,6.85,AR,1635042485
34,fort nelson,58.8053,-122.7002,33.39,86,40,5.75,CA,1635042489
35,phuket,8.0,98.25,85.08,83,20,6.91,TH,1635042493
36,coquimbo,-29.9533,-71.3436,55.13,76,0,1.14,CL,1635042498
37,kahului,20.8947,-156.47,82.42,70,1,23.02,US,1635042431
38,tondano,1.3038,124.9112,82.49,59,100,2.15,ID,1635042502
39,zhangjiakou,40.81,114.8794,48.56,36,9,1.77,CN,1635042505
40,haines junction,60.7522,-137.5108,28.35,93,94,3.44,CA,1635042507
41,inuvik,68.3499,-133.7218,29.26,86,75,3.44,CA,1635042509
42,bambous virieux,-20.3428,57.7575,75.22,83,40,11.5,MU,1635042512
43,biak,-0.9131,122.8766,83.95,62,51,2.33,ID,1635042514
44,harwich,51.9419,1.2844,55.29,73,38,8.99,GB,1635042517
45,upernavik,72.7868,-56.1549,18.27,90,100,13.53,GL,1635042519
46,arraial do cabo,-22.9661,-42.0278,70.95,89,0,32.26,BR,1635042521
47,kapaa,22.0752,-159.319,84.18,77,40,3.0,US,1635042496
48,qasigiannguit,68.8193,-51.1922,23.25,95,100,4.74,GL,1635042526
49,fortuna,40.5982,-124.1573,58.98,90,90,1.01,US,1635042279
50,srivardhan,18.0333,73.0167,75.49,84,4,6.24,IN,1635042530
51,nanortalik,60.1432,-45.2371,35.33,68,16,21.21,GL,1635042532
52,jamestown,42.097,-79.2353,44.29,95,75,3.0,US,1635042535
53,mataura,-46.1927,168.8643,67.66,55,99,1.54,NZ,1635042537
54,faanui,-16.4833,-151.75,78.12,81,74,13.49,PF,1635042541
55,ahipara,-35.1667,173.1667,65.14,79,25,7.9,NZ,1635042544
56,qaanaaq,77.484,-69.3632,-1.07,58,0,7.78,GL,1635042275
57,san patricio,28.017,-97.5169,78.89,71,1,9.24,US,1635042396
58,cubuk,40.2386,33.0322,49.77,64,0,4.61,TR,1635042550
59,te anau,-45.4167,167.7167,55.99,85,100,1.1,NZ,1635042494
60,lasa,46.6166,10.7002,38.62,48,2,1.7,IT,1635042555
61,sistranda,63.7256,8.834,41.9,81,100,15.86,NO,1635042557
62,bluff,-46.6,168.3333,52.77,92,100,4.76,NZ,1635042559
63,saint-philippe,-21.3585,55.7679,73.22,84,40,13.91,RE,1635042563
64,salalah,17.0151,54.0924,73.49,68,0,5.75,OM,1635042568
65,sur,22.5667,59.5289,79.9,64,2,8.37,OM,1635042570
66,charters towers,-20.1,146.2667,93.52,28,46,10.76,AU,1635042336
67,sand,50.0,10.6,38.86,89,0,3.36,DE,1635042574
68,beringovskiy,63.05,179.3167,13.21,73,2,7.2,RU,1635042579
69,camana,-16.6228,-72.7111,62.01,80,88,7.87,PE,1635042581
70,araouane,18.9048,-3.5265,83.64,22,5,9.53,ML,1635042583
71,grindavik,63.8424,-22.4338,46.87,93,75,9.22,IS,1635042462
72,chapais,49.7834,-74.8492,33.58,91,100,1.14,CA,1635042588
73,avarua,-21.2078,-159.775,75.25,53,75,6.91,CK,1635042590
74,normandin,48.8333,-72.5321,37.53,72,100,6.91,CA,1635042593
75,manzhouli,49.6,117.4333,43.57,43,11,3.58,CN,1635042595
76,bredasdorp,-34.5322,20.0403,49.32,81,59,4.61,ZA,1635042597
77,hithadhoo,-0.6,73.0833,82.74,71,100,11.34,MV,1635042350
78,nizhniy kislyay,50.8497,40.1719,37.38,81,9,7.05,RU,1635042602
79,vila franca do campo,37.7167,-25.4333,64.81,84,91,6.29,PT,1635042604
80,hamilton,39.1834,-84.5333,55.42,89,90,0.0,US,1635042607
81,aitape,-3.1374,142.3475,83.26,79,100,9.24,PG,1635042610
82,hilo,19.7297,-155.09,80.33,70,20,8.05,US,1635042453
83,banda aceh,5.5577,95.3222,81.37,75,100,0.98,ID,1635042341
84,padang,-0.9492,100.3543,80.65,81,75,5.32,ID,1635042617
85,ribeira grande,38.5167,-28.7,67.08,63,64,11.14,PT,1635042619
86,sao joao da barra,-21.6403,-41.0511,72.34,90,5,22.68,BR,1635042621
87,kuytun,54.3419,101.5036,37.33,81,89,4.9,RU,1635042624
88,garoua,9.3,13.4,74.68,82,24,4.83,CM,1635042626
89,byron bay,-28.65,153.6167,94.05,52,53,11.41,AU,1635042622
90,el estor,15.5333,-89.35,76.01,96,98,0.78,GT,1635042630
91,kirakira,-10.4544,161.9205,87.08,67,7,12.86,SB,1635042554
92,puerto ayora,-0.7393,-90.3518,68.88,89,79,7.85,EC,1635042637
93,katsuura,35.1333,140.3,62.71,51,13,6.31,JP,1635042639
94,kruisfontein,-34.0033,24.7314,49.91,79,6,8.01,ZA,1635042642
95,saskylakh,71.9167,114.0833,6.58,94,100,13.65,RU,1635042644
96,korla,41.7597,86.1469,51.85,34,50,4.09,CN,1635042646
97,neumunster,54.0667,9.9833,46.38,95,100,4.0,DE,1635042648
98,husavik,66.0449,-17.3389,30.11,96,100,3.67,IS,1635042651
99,conselheiro lafaiete,-20.6603,-43.7861,61.97,96,24,1.59,BR,1635042403
100,thompson,55.7435,-97.8558,24.96,93,20,0.0,CA,1635042615
101,ostrovnoy,68.0531,39.5131,24.71,90,76,17.78,RU,1635042657
102,khatanga,71.9667,102.5,6.8,92,95,16.02,RU,1635042660
103,kaitangata,-46.2817,169.8464,58.98,70,84,6.44,NZ,1635042662
104,olinda,-8.0089,-34.8553,80.33,78,75,8.05,BR,1635042664
105,gornyak,50.9942,81.4661,42.6,54,97,21.39,RU,1635042667
106,georgetown,5.4112,100.3354,85.93,79,20,3.0,MY,1635042615
107,axim,4.8699,-2.2405,76.57,87,70,2.21,GH,1635042671
108,parana,-31.732,-60.5238,60.3,88,1,8.12,AR,1635042673
109,agirish,61.9247,63.0231,28.69,82,9,7.83,RU,1635042676
110,butaritari,3.0707,172.7902,81.21,72,40,7.81,KI,1635042678
111,new norfolk,-42.7826,147.0587,55.65,51,100,5.01,AU,1635042680
112,henties bay,-22.116,14.2845,57.85,93,23,8.75,NA,1635042494
113,pinawa,50.1489,-95.8811,34.07,76,36,3.83,CA,1635042685
114,dikson,73.5069,80.5464,9.19,86,100,15.61,RU,1635042687
115,boke,10.9409,-14.2967,74.84,95,100,1.88,GN,1635042689
116,lebu,-37.6167,-73.65,48.81,93,13,5.59,CL,1635042679
117,port lincoln,-34.7333,135.8667,60.3,59,15,11.32,AU,1635042471
118,samarai,-10.6167,150.6667,81.36,81,31,11.07,PG,1635042696
119,sabang,5.8933,95.3214,81.52,74,100,2.95,ID,1635042698
120,mineiros,-17.5694,-52.5511,75.76,63,2,12.3,BR,1635042700
121,djibo,14.1022,-1.6306,84.83,49,99,6.73,BF,1635042703
122,vostok,46.4856,135.8833,45.95,46,0,7.58,RU,1635042451
123,sucua,-2.4667,-78.1667,69.17,98,100,2.75,EC,1635042707
124,port alfred,-33.5906,26.891,56.64,72,27,13.65,ZA,1635042712
125,tasiilaq,65.6145,-37.6368,32.16,96,100,6.51,GL,1635042714
126,atasu,48.6814,71.6433,38.32,50,0,9.01,KZ,1635042716
127,cherskiy,68.75,161.3,-5.24,100,88,4.54,RU,1635042718
128,westport,41.1415,-73.3579,56.32,71,90,4.0,US,1635042721
129,saldanha,-33.0117,17.9442,48.25,72,0,8.7,ZA,1635042723
130,caxito,-8.5785,13.6643,75.85,86,100,2.26,AO,1635042725
131,barrow,71.2906,-156.7887,30.22,80,90,13.8,US,1635042728
132,myitkyina,25.3833,97.4,80.83,63,5,0.87,MM,1635042730
133,torbay,47.6666,-52.7314,59.77,95,90,12.66,CA,1635042732
134,elat,29.5581,34.9482,66.04,59,0,11.5,IL,1635042735
135,severo-kurilsk,50.6789,156.125,40.75,84,67,10.92,RU,1635042737
136,kieta,-6.2167,155.6333,84.15,73,19,5.37,PG,1635042739
137,touros,-5.1989,-35.4608,79.7,80,68,12.3,BR,1635042742
138,luanda,-8.8368,13.2343,75.2,83,75,8.05,AO,1635042464
139,udomlya,57.8794,34.9925,35.17,96,100,10.89,RU,1635042748
140,rayachoti,14.05,78.75,76.15,80,84,3.98,IN,1635042750
141,chokurdakh,70.6333,147.9167,-2.11,97,99,5.48,RU,1635042728
142,shubarshi,48.5872,57.1869,42.75,37,11,11.03,KZ,1635042755
143,yellowknife,62.456,-114.3525,41.56,80,75,17.27,CA,1635042757
144,los llanos de aridane,28.6585,-17.9182,64.15,78,90,4.0,ES,1635042760
145,myanaung,18.2833,95.3167,77.76,91,97,4.65,MM,1635042762
146,vila velha,-20.3297,-40.2925,73.35,88,75,8.05,BR,1635042589
147,tiksi,71.6872,128.8694,3.16,94,100,10.25,RU,1635042766
148,hobart,-42.8794,147.3294,56.01,60,75,4.0,AU,1635042612
149,veraval,20.9,70.3667,81.1,62,15,7.07,IN,1635042771
150,mackenzie,55.2999,-123.1698,43.02,75,75,2.3,CA,1635042548
151,muli,2.9167,73.5667,82.63,74,94,13.33,MV,1635042775
152,necochea,-38.5473,-58.7368,44.6,64,0,3.24,AR,1635042780
153,outlook,51.5001,-107.0513,43.36,52,100,19.66,CA,1635042784
154,bethel,41.3712,-73.414,54.55,81,90,0.0,US,1635042694
155,saint-joseph,-21.3667,55.6167,72.21,79,21,7.7,RE,1635042791
156,boende,-0.2167,20.8667,70.23,100,100,2.55,CD,1635042793
157,vardo,70.3705,31.1107,36.57,66,69,23.85,NO,1635042795
158,nikolskoye,59.7035,30.7861,34.39,91,72,8.16,RU,1635042753
159,pacific grove,36.6177,-121.9166,62.46,81,100,1.99,US,1635042743
160,alice springs,-23.7,133.8833,78.35,22,75,17.27,AU,1635042780
161,korsakovo,53.2677,37.3569,39.85,74,100,14.99,RU,1635042804
162,santo estevao,-12.4303,-39.2514,72.21,95,100,2.89,BR,1635042806
163,penzance,50.1186,-5.5371,56.08,88,88,25.55,GB,1635042808
164,cabo san lucas,22.8909,-109.9124,82.62,75,1,1.99,MX,1635042662
165,santa cruz,-17.8,-63.1667,85.46,66,20,13.8,BO,1635042771
166,gangoh,29.7667,77.25,70.74,68,92,7.92,IN,1635042815
167,moerai,-22.4333,-151.3333,70.27,71,100,10.09,PF,1635042817
168,mar del plata,-38.0023,-57.5575,53.01,72,20,1.99,AR,1635042770
169,okhotsk,59.3833,143.3,23.72,63,1,16.6,RU,1635042823
170,fano,43.8204,13.0121,57.78,89,82,5.7,IT,1635042825
171,havoysund,70.9963,24.6622,32.88,56,95,16.31,NO,1635042828
172,solenzo,12.1833,-4.0833,78.96,65,60,0.18,BF,1635042830
173,hokitika,-42.7167,170.9667,55.62,86,100,3.65,NZ,1635042832
174,ranong,9.9658,98.6348,80.53,75,100,4.76,TH,1635042837
175,alta floresta,-9.8756,-56.0861,73.13,87,21,3.53,BR,1635042841
176,grand gaube,-20.0064,57.6608,75.38,75,78,5.99,MU,1635042823
177,lakselv,70.0513,24.9718,26.42,80,90,3.44,NO,1635042554
178,aklavik,68.2191,-135.0107,29.23,95,82,3.09,CA,1635042848
179,bodri,23.1667,81.4333,73.15,56,1,2.89,IN,1635042850
180,nome,64.5011,-165.4064,32.07,74,1,4.61,US,1635042852
181,jinxiang,27.4327,120.6062,63.27,77,98,10.11,CN,1635042854
182,savannah bight,16.45,-85.85,82.0,80,85,21.54,HN,1635042857
183,susangerd,31.5608,48.1831,60.82,22,0,5.99,IR,1635042859
184,lethem,3.3803,-59.7968,79.84,73,100,9.44,GY,1635042861
185,beloha,-25.1667,45.05,68.63,78,0,3.09,MG,1635042864
186,jalu,29.0331,21.5482,68.56,41,17,10.58,LY,1635042863
187,castro,-24.7911,-50.0119,58.55,97,100,5.7,BR,1635042739
188,caravelas,-17.7125,-39.2481,74.39,90,95,3.33,BR,1635042870
189,ondjiva,-17.0667,15.7333,63.45,15,62,3.67,AO,1635042872
190,east london,-33.0153,27.9116,58.82,66,17,15.41,ZA,1635042756
191,ponta do sol,32.6667,-17.1,70.43,64,15,6.06,PT,1635042877
192,ugleuralskiy,58.9534,57.5846,36.19,90,98,6.11,RU,1635042879
193,anchorage,61.2181,-149.9003,45.68,74,40,8.01,US,1635042839
194,sao filipe,14.8961,-24.4956,78.53,68,10,9.1,CV,1635042696
195,acapulco,16.8634,-99.8901,73.22,94,90,12.66,MX,1635042750
196,yeppoon,-23.1333,150.7333,91.18,69,98,11.68,AU,1635042888
197,sitka,57.0531,-135.33,48.09,66,90,11.5,US,1635042891
198,uyuni,-20.4597,-66.825,43.41,18,0,9.37,BO,1635042893
199,twin falls,42.3505,-114.6445,49.89,57,90,4.61,US,1635042895
200,port elizabeth,-33.918,25.5701,55.69,76,0,12.66,ZA,1635042789
201,barmer,25.75,71.3833,75.06,73,0,13.6,IN,1635042900
202,jataizinho,-23.2542,-50.98,68.58,100,90,13.8,BR,1635042902
203,togur,58.3631,82.8265,46.04,78,99,17.11,RU,1635042905
204,gamboula,4.1178,15.1393,68.13,98,100,2.91,CF,1635042907
205,talnakh,69.4865,88.3972,23.02,90,100,5.93,RU,1635042658
206,luderitz,-26.6481,15.1594,56.32,69,0,15.08,NA,1635042891
207,alofi,-19.0595,-169.9187,78.69,50,99,19.57,NU,1635042914
208,mandalgovi,45.7625,106.2708,44.01,25,98,9.04,MN,1635042916
209,sabirabad,40.0095,48.4752,47.39,71,0,5.28,AZ,1635042918
210,yuanping,38.7153,112.7575,52.92,46,61,1.95,CN,1635042921
211,imuris,30.7833,-110.8667,69.13,39,100,8.68,MX,1635042923
212,ilulissat,69.2167,-51.1,23.02,74,90,14.97,GL,1635042926
213,yar-sale,66.8333,70.8333,27.82,90,96,12.48,RU,1635042794
214,itarantim,-15.6597,-40.0656,70.88,97,98,1.68,BR,1635042930
215,benin,9.5,2.25,71.49,93,93,2.53,BJ,1635042933
216,namibe,-15.1961,12.1522,63.55,73,78,5.3,AO,1635042935
217,isiro,2.7739,27.616,65.17,99,43,2.42,CD,1635042939
218,broome,42.2506,-75.833,44.2,87,90,3.44,US,1635042788
219,la ronge,55.1001,-105.2842,37.65,70,75,17.27,CA,1635042944
220,ulfborg,56.2673,8.3217,50.9,82,100,15.12,DK,1635042946
221,longyan,25.1072,117.0225,59.92,93,100,3.51,CN,1635042948
222,hervey bay,-25.2986,152.8535,89.71,78,99,16.6,AU,1635042951
223,kysyl-syr,63.8986,122.7617,34.18,84,99,11.39,RU,1635042955
224,shimoda,34.6667,138.95,64.76,61,95,10.0,JP,1635042957
225,mayahi,13.9553,7.6712,83.14,26,65,4.63,NE,1635042960
226,galle,6.0367,80.217,83.44,69,57,12.35,LK,1635042962
227,sal rei,16.1833,-22.9167,77.56,74,45,16.87,CV,1635042966
228,loralai,30.3705,68.598,57.15,25,0,3.42,PK,1635042969
229,piripiri,-4.2733,-41.7769,75.36,90,49,2.04,BR,1635042973
230,pevek,69.7008,170.3133,9.23,91,100,5.28,RU,1635042976
231,waingapu,-9.6567,120.2641,88.12,56,71,8.77,ID,1635042978
232,key west,24.5557,-81.7826,82.4,84,1,4.61,US,1635042980
233,abengourou,6.7297,-3.4964,70.7,100,100,2.21,CI,1635042983
234,flin flon,54.7682,-101.865,38.17,68,96,12.08,CA,1635042985
235,akureyri,65.6835,-18.0878,30.13,100,0,0.0,IS,1635042987
236,warri,5.5167,5.75,73.47,97,97,2.93,NG,1635042990
237,coahuayana,18.7333,-103.6833,83.68,90,100,3.33,MX,1635042992
238,wichian buri,15.6578,101.106,78.57,74,69,13.56,TH,1635042995
239,brekstad,63.687,9.6654,42.01,87,75,20.71,NO,1635042997
240,luba,3.4568,8.5547,78.49,82,80,3.33,GQ,1635042999
241,mandera,3.9366,41.867,78.17,75,10,5.75,KE,1635043001
242,abong mbang,3.9833,13.1833,66.87,99,100,2.21,CM,1635043004
243,toora-khem,52.4675,96.11,34.68,68,97,3.09,RU,1635043006
244,seoul,37.5683,126.9778,60.37,47,0,3.44,KR,1635042834
245,marawi,7.9986,124.2928,73.65,55,91,2.75,PH,1635043010
246,paamiut,61.994,-49.6678,31.26,42,94,5.23,GL,1635042735
247,longyearbyen,78.2186,15.6401,15.64,86,0,6.91,SJ,1635043015
248,taybad,34.74,60.7756,48.85,22,0,3.56,IR,1635043017
249,nara,34.6851,135.8049,63.5,36,79,2.17,JP,1635043019
250,kresttsy,58.2452,32.5165,35.46,89,100,10.25,RU,1635043022
251,scottsbluff,41.8666,-103.6672,55.83,76,40,5.75,US,1635043026
252,mahajanga,-15.7167,46.3167,73.42,88,20,0.0,MG,1635042781
253,sirsa,29.5333,75.0167,67.26,80,100,17.96,IN,1635043030
254,campo de criptana,39.4046,-3.1249,54.54,51,43,1.68,ES,1635043033
255,bonavista,48.6499,-53.1147,56.12,100,100,7.07,CA,1635043035
256,saint george,37.1041,-113.5841,68.59,34,1,1.01,US,1635042862
257,hasaki,35.7333,140.8333,68.29,45,20,4.7,JP,1635043040
258,kalabo,-14.97,22.6814,75.81,52,78,3.51,ZM,1635043042
259,rincon,32.296,-81.2354,65.86,92,1,0.0,US,1635042803
260,ginir,7.1333,40.7,54.73,57,18,5.97,ET,1635043049
261,constitucion,-35.3333,-72.4167,50.14,88,2,13.0,CL,1635043051
262,ixtapa,20.7,-105.2,83.43,84,40,0.0,MX,1635043053
263,esperance,-33.8667,121.9,73.24,39,15,12.55,AU,1635042989
264,cam ranh,11.9214,109.1591,85.96,62,20,13.8,VN,1635043058
265,barahona,18.2085,-71.1008,78.62,82,81,5.64,DO,1635043060
266,watsa,3.0372,29.5355,62.1,97,41,2.37,CD,1635043062
267,sovetskiy,61.3614,63.5842,31.42,80,52,6.78,RU,1635043067
268,maningrida,-12.0667,134.2667,92.71,46,13,14.58,AU,1635043069
269,marsciano,42.9059,12.3359,57.18,84,67,1.99,IT,1635043071
270,xingyi,24.1877,102.817,55.74,91,100,2.66,CN,1635043074
271,fomboni,-12.28,43.7425,79.48,80,97,11.32,KM,1635043076
272,koutsouras,35.0339,25.9469,65.1,65,0,5.06,GR,1635043078
273,lac du bonnet,50.2536,-96.0612,33.98,77,20,4.38,CA,1635043081
274,cabadiangan,9.7531,122.4739,83.23,76,100,7.34,PH,1635043085
275,narsaq,60.9167,-46.05,34.02,52,32,4.36,GL,1635043087
276,norman wells,65.282,-126.8329,32.04,80,75,0.0,CA,1635042836
277,maarianhamina,60.0973,19.9348,28.26,93,0,1.14,AX,1635043092
278,kirkwall,58.9848,-2.9587,55.74,87,75,12.66,GB,1635043094
279,onguday,50.75,86.15,36.73,61,100,3.04,RU,1635043099
280,adrar,20.5022,-10.0711,78.17,16,35,9.17,MR,1635043101
281,riyadh,24.6877,46.7219,75.34,24,0,8.99,SA,1635042989
282,yulara,-25.2406,130.9889,80.44,19,3,18.41,AU,1635043106
283,tura,25.5198,90.2201,76.01,62,19,0.89,IN,1635042898
284,lagoa,39.05,-27.9833,66.67,59,81,12.82,PT,1635042948
285,ishim,56.1128,69.4902,43.5,87,51,12.48,RU,1635043112
286,surskoye,54.4821,46.7214,37.2,88,6,8.57,RU,1635043114
287,san cristobal,7.7669,-72.225,71.78,98,100,2.21,VE,1635043119
288,mukhen,48.1,136.1,50.23,51,0,11.05,RU,1635043121
289,viesca,25.35,-102.8,78.37,32,11,4.21,MX,1635043123
290,katherine,-14.4667,132.2667,93.52,38,40,8.05,AU,1635043126
291,torrington,41.8007,-73.1212,52.12,77,99,3.24,US,1635043128
292,victor harbor,-35.5667,138.6167,67.8,71,94,1.01,AU,1635043131
293,williamsport,41.2412,-77.0011,46.98,96,40,0.0,US,1635042961
294,lewiston,44.1003,-70.2148,45.48,77,75,6.91,US,1635043135
295,satana,20.5833,74.2,71.51,61,2,1.14,IN,1635043137
296,kulhudhuffushi,6.6221,73.07,81.1,78,100,10.65,MV,1635043140
297,huangmei,30.1924,116.025,67.89,48,1,1.92,CN,1635043142
298,anadyr,64.75,177.4833,1.9,85,75,8.95,RU,1635042940
299,college,64.8569,-147.8028,34.59,80,75,0.0,US,1635043146
300,shingu,33.7333,135.9833,67.19,44,42,5.08,JP,1635043149
301,tuatapere,-46.1333,167.6833,55.58,91,100,2.86,NZ,1635043151
302,ambanja,-13.6833,48.45,75.94,83,88,2.3,MG,1635043153
303,sydney mines,46.2367,-60.2177,61.68,97,90,1.99,CA,1635043156
304,wewak,-3.5534,143.6268,85.6,68,52,9.57,PG,1635043022
305,kavieng,-2.5744,150.7967,85.66,68,18,12.19,PG,1635043160
306,wanning,18.8003,110.3967,76.32,76,85,16.15,CN,1635043162
307,ucluelet,48.9329,-125.5528,48.09,85,12,7.81,CA,1635042926
308,noshiro,40.2039,140.0242,58.03,55,45,11.99,JP,1635043167
309,raudeberg,61.9875,5.1352,48.87,86,100,11.01,NO,1635043056
310,igarka,67.4667,86.5833,30.85,97,100,11.23,RU,1635043171
311,aripuana,-9.1667,-60.6333,77.0,77,45,3.24,BR,1635043175
312,shebekino,50.4097,36.9136,36.82,79,48,6.96,RU,1635043178
313,alghero,40.5589,8.3181,64.49,82,0,6.91,IT,1635043180
314,manama,26.2154,50.5832,77.34,70,0,5.75,BH,1635043182
315,aykhal,66.0,111.5,24.8,92,100,22.15,RU,1635043185
316,carnarvon,-24.8667,113.6333,75.27,69,0,14.97,AU,1635043187
317,san quintin,30.4833,-115.95,59.43,75,7,18.66,MX,1635043189
318,vestmannaeyjar,63.4427,-20.2734,47.44,83,100,16.37,IS,1635042899
319,la crosse,43.8014,-91.2396,41.99,83,1,0.0,US,1635042951
320,suntar,62.1444,117.6319,36.5,69,15,10.02,RU,1635043198
321,abnub,27.2696,31.1511,61.02,64,0,9.8,EG,1635043201
322,mogadishu,2.0371,45.3438,79.14,81,11,10.58,SO,1635042961
323,petropavlovsk-kamchatskiy,53.0452,158.6483,43.39,61,75,6.71,RU,1635043206
324,bacabal,-4.2917,-44.7917,75.92,92,74,3.09,BR,1635043208
325,eirunepe,-6.6603,-69.8736,75.99,86,28,2.35,BR,1635043210
326,deputatskiy,69.3,139.9,-0.15,97,100,2.95,RU,1635043213
327,okmulgee,35.6234,-95.9605,75.31,69,1,14.97,US,1635043215
328,grand forks,47.9417,-97.4337,35.53,93,1,3.44,US,1635042956
329,rosetta,31.4044,30.4164,69.62,66,93,7.23,EG,1635043219
330,praia da vitoria,38.7333,-27.0667,63.75,88,75,9.91,PT,1635043222
331,cananeia,-25.0147,-47.9267,68.14,97,100,11.63,BR,1635043224
332,eureka,40.8021,-124.1637,60.13,79,100,4.0,US,1635042957
333,diamantino,-14.4086,-56.4461,81.07,63,15,10.83,BR,1635043229
334,tamworth,52.634,-1.6959,53.47,75,100,8.99,GB,1635043231
335,sambava,-14.2667,50.1667,74.84,92,94,4.83,MG,1635043233
336,tessalit,20.1986,1.0114,81.07,23,50,9.62,ML,1635043236
337,mwinilunga,-11.7358,24.4293,63.73,74,9,2.06,ZM,1635043238
338,nouakchott,18.0858,-15.9785,76.93,47,24,12.86,MR,1635043240
339,honningsvag,70.9821,25.9704,38.77,59,97,21.63,NO,1635043242
340,isangel,-19.55,169.2667,80.71,78,75,9.22,VU,1635043245
341,poum,-20.2333,164.0167,74.03,76,31,6.24,NC,1635043247
342,altamira,-3.2033,-52.2064,73.8,92,40,1.32,BR,1635043251
343,lourdes,43.1,-0.05,38.68,93,0,4.61,FR,1635043254
344,kayerkan,69.3497,87.7602,21.2,92,99,6.29,RU,1635043256
345,strai,58.2,7.9,52.63,81,90,2.3,NO,1635043258
346,bathsheba,13.2167,-59.5167,83.01,69,20,20.71,BB,1635043261
347,yerraguntla,14.6372,78.5395,77.31,82,100,0.56,IN,1635043263
348,itoman,26.1247,127.6694,78.82,63,75,12.66,JP,1635043266
349,chippewa falls,44.9369,-91.3929,38.97,85,1,0.0,US,1635043085
350,cap malheureux,-19.9842,57.6142,76.46,74,73,5.01,MU,1635043272
351,kununurra,-15.7667,128.7333,94.98,43,2,6.91,AU,1635043275
352,atar,20.5169,-13.0499,78.49,19,11,7.58,MR,1635043277
353,syracuse,37.0881,15.2792,73.45,86,100,17.76,IT,1635043279
354,gorom-gorom,14.4439,-0.2361,84.4,50,100,7.25,BF,1635043282
355,rocha,-34.4833,-54.3333,51.66,94,24,7.02,UY,1635043284
356,brigantine,39.4101,-74.3646,58.01,88,40,11.5,US,1635043286
357,angoche,-16.2325,39.9086,71.87,89,9,8.25,MZ,1635043289
358,lar,26.2039,83.9717,77.63,58,0,2.44,IN,1635043293
359,khani,41.9563,42.9566,35.17,54,18,4.92,GE,1635043295
360,bull savanna,17.8868,-77.5902,76.82,86,51,8.23,JM,1635043298
361,jiehu,35.5428,118.455,60.48,45,100,3.22,CN,1635043300
362,trofors,65.5333,13.4063,40.35,96,100,3.87,NO,1635043302
363,kungurtug,50.5994,97.5228,35.19,49,40,1.23,RU,1635043305
364,kloulklubed,7.0419,134.2556,86.5,71,9,4.65,PW,1635043307
365,mount gambier,-37.8333,140.7667,57.11,58,90,12.66,AU,1635043309
366,jibuti,11.5,42.5,78.22,63,5,9.08,DJ,1635043183
367,isugod,9.3408,118.1196,80.73,74,100,2.01,PH,1635043316
368,bunia,1.5667,30.25,62.58,93,15,2.86,CD,1635043320
369,ilyich,40.8464,68.5067,47.46,35,0,0.63,KZ,1635043322
370,acarau,-2.8856,-40.12,79.47,81,91,11.65,BR,1635043325
371,amga,60.8953,131.9608,33.62,98,100,7.76,RU,1635043327
372,evensk,61.95,159.2333,16.47,68,67,11.25,RU,1635043330
373,san juan,-31.5375,-68.5364,66.13,24,0,7.83,AR,1635043240
374,kuching,1.55,110.3333,86.22,74,40,2.3,MY,1635043266
375,fonte boa,-2.4959,-66.2662,78.04,84,39,2.42,BR,1635043336
376,xai-xai,-25.0519,33.6442,70.23,80,82,27.47,MZ,1635043338
377,viedma,-40.8135,-62.9967,46.02,30,1,11.99,AR,1635043225
378,esterhazy,50.65,-102.0843,34.65,69,100,14.56,CA,1635043343
379,vanavara,60.34,102.2797,33.08,95,100,12.88,RU,1635043345
380,kamarion,36.8,25.8167,64.92,73,0,6.98,GR,1635043348
381,baghdad,33.3406,44.4009,64.31,42,0,2.3,IQ,1635043327
382,cockburn town,21.4612,-71.1419,82.98,69,95,19.44,TC,1635043352
383,ormara,25.2088,64.6357,77.72,23,0,9.26,PK,1635043354
384,creston,41.0586,-94.3614,52.54,57,100,12.39,US,1635043363
385,lorengau,-2.0226,147.2712,85.37,68,98,9.4,PG,1635043365
386,andilamena,-17.0167,48.5833,65.64,92,37,2.93,MG,1635043370
387,xuddur,4.1213,43.8894,71.28,93,2,8.61,SO,1635043372
388,buraydah,26.326,43.975,68.45,25,0,9.24,SA,1635043374
389,batemans bay,-35.7167,150.1833,73.98,37,11,9.28,AU,1635043376
390,lamont,35.2597,-118.9143,66.0,50,97,4.63,US,1635043379
391,disna,55.568,28.1971,36.77,78,100,12.5,BY,1635043383
392,aksarka,66.5606,67.7975,25.59,82,98,17.0,RU,1635043386
393,kavaratti,10.5669,72.642,80.8,76,73,2.24,IN,1635043388
394,palu,-0.8917,119.8707,87.44,67,87,3.56,ID,1635043391
395,qurayyat,31.3318,37.3428,57.38,72,0,11.5,SA,1635043117
396,ulaangom,49.9811,92.0667,39.85,42,79,4.09,MN,1635043395
397,camacha,33.0833,-16.3333,66.96,64,75,6.91,PT,1635043398
398,richards bay,-28.783,32.0377,66.42,76,100,16.55,ZA,1635043400
399,trincomalee,8.5711,81.2335,80.8,79,82,11.92,LK,1635043402
400,karratha,-20.7377,116.8463,92.98,21,6,18.28,AU,1635043405
401,marang,5.2056,103.2059,84.11,70,70,2.59,MY,1635043407
402,half moon bay,37.4636,-122.4286,64.71,77,90,1.99,US,1635043411
403,kaeo,-35.1,173.7833,65.32,97,54,4.25,NZ,1635043414
404,harindanga,22.0383,88.3214,82.38,70,8,5.48,IN,1635043416
405,alamosa,37.4695,-105.87,47.71,31,99,5.28,US,1635043265
406,hambantota,6.1241,81.1185,79.14,94,20,9.22,LK,1635043370
407,hargeysa,9.56,44.065,61.65,90,8,10.36,SO,1635043422
408,kalianget,-7.05,113.9333,87.46,62,89,4.88,ID,1635043425
409,mmabatho,-25.85,25.6333,53.56,58,0,10.36,ZA,1635043427
410,iqaluit,63.7506,-68.5145,31.73,80,90,17.0,CA,1635043429
411,ayan,56.45,138.1667,41.38,57,97,6.91,RU,1635043432
412,bambui,-20.0064,-45.9769,74.44,53,82,5.61,BR,1635043134
413,russell,32.3502,-85.1999,58.23,82,1,0.0,US,1635043436
414,itarema,-2.9248,-39.9167,79.56,80,72,11.81,BR,1635043414
415,berlevag,70.8578,29.0864,37.22,63,91,21.92,NO,1635043441
416,lobatse,-25.2167,25.6667,52.92,52,1,10.67,BW,1635043443
417,zhuhai,22.2769,113.5678,75.97,77,40,19.57,CN,1635043447
418,ellisras,-23.6649,27.7443,68.58,17,0,4.27,ZA,1635043450
419,tucurui,-3.7661,-49.6725,73.89,93,78,2.46,BR,1635043452
420,kiama,-34.6833,150.8667,73.99,56,39,13.69,AU,1635043454
421,gravdal,68.1214,13.5031,37.49,95,100,13.67,NO,1635043457
422,bilibino,68.0546,166.4372,-8.93,99,87,1.72,RU,1635043459
423,mehamn,71.0357,27.8492,36.5,63,98,18.39,NO,1635043461
424,nemuro,43.3236,145.575,55.83,63,11,15.55,JP,1635043284
425,naze,28.3667,129.4833,70.72,65,99,20.45,JP,1635043466
426,bay roberts,47.5999,-53.2648,60.55,96,100,5.01,CA,1635043470
427,sterling,39.0062,-77.4286,55.85,85,20,5.99,US,1635043291
428,kilindoni,-7.9139,39.6668,78.22,75,70,8.59,TZ,1635043475
429,cosala,24.4125,-106.6908,71.46,96,0,0.85,MX,1635043477
430,margate,51.3813,1.3862,55.9,74,15,4.0,GB,1635043479
431,shache,38.4167,77.2406,50.88,27,9,1.88,CN,1635043484
432,garhi khairo,28.0606,67.9803,75.34,41,0,4.07,PK,1635043486
433,zlotow,53.3635,17.0408,31.44,92,56,6.11,PL,1635043488
434,ko samui,9.5357,99.9357,85.91,79,20,4.61,TH,1635043491
435,fare,-16.7,-151.0167,77.76,83,88,14.58,PF,1635043493
436,gualaquiza,-3.4,-78.55,63.91,99,100,1.48,EC,1635043495
437,sungaipenuh,-2.0833,101.3833,74.44,76,98,2.33,ID,1635043498
438,tiznit,29.5833,-9.5,61.79,65,24,1.16,MA,1635043500
439,brae,60.3964,-1.353,51.71,94,100,18.16,GB,1635043502
440,yatou,37.15,122.3833,60.13,43,4,4.12,CN,1635043505
441,hami,42.8,93.45,48.97,42,100,2.42,CN,1635043508
442,erzin,36.9559,36.2,55.92,58,0,2.39,TR,1635043510
443,pontecorvo,41.4616,13.6667,63.45,80,96,5.64,IT,1635043512
444,lompoc,34.6391,-120.4579,64.38,84,1,20.0,US,1635043407
445,semey,50.4111,80.2275,44.82,61,0,22.37,KZ,1635043517
446,porlamar,10.958,-63.8491,80.26,79,42,16.58,VE,1635043502
447,wabag,-5.4781,143.7021,72.3,47,16,6.73,PG,1635043522
448,klaksvik,62.2266,-6.589,49.12,90,100,13.47,FO,1635043524
449,aleksandrovskoye,44.7142,43.0008,37.54,80,100,6.93,RU,1635043527
450,phangnga,8.4509,98.5298,84.9,68,66,2.73,TH,1635043529
451,amurzet,47.6967,131.0981,55.92,32,0,8.93,RU,1635043531
452,santa vitoria do palmar,-33.5189,-53.3681,54.34,96,49,8.21,BR,1635043534
453,levokumskoye,44.8219,44.6606,52.32,64,77,7.67,RU,1635043536
454,kayes,14.0,-11.0,78.8,74,54,5.17,ML,1635043538
455,shelburne,44.0787,-80.2041,42.69,84,63,5.41,CA,1635043393
456,ahuimanu,21.4447,-157.8378,83.91,63,20,9.22,US,1635043543
457,bangui,4.3612,18.555,77.18,88,20,0.0,CF,1635043545
458,soyo,-6.1349,12.3689,77.58,84,100,8.43,AO,1635043547
459,san rafael,-34.6177,-68.3301,59.23,25,0,4.45,AR,1635043316
460,yaan,7.3833,8.5667,72.23,86,99,2.68,NG,1635043552
461,nagato,34.3833,131.2,67.19,47,100,5.55,JP,1635043554
462,bilma,18.6853,12.9164,79.25,16,27,5.59,NE,1635043556
463,leningradskiy,69.3833,178.4167,10.44,95,100,8.39,RU,1635043559
464,rio grande,-32.035,-52.0986,58.95,88,77,14.05,BR,1635043561
465,maun,-19.9833,23.4167,76.96,57,0,3.44,BW,1635043563
466,najran,17.4924,44.1277,59.65,34,9,2.98,SA,1635043566
467,jawhar,2.7809,45.5005,75.92,87,4,5.7,SO,1635043568
468,warrnambool,-38.3833,142.4833,58.8,64,95,16.13,AU,1635043573
469,zapolyarnyy,69.4154,30.8136,22.28,93,58,8.1,RU,1635043575
470,nosy varika,-20.5833,48.5333,74.48,93,45,7.4,MG,1635043577
471,susanville,40.4163,-120.653,43.83,87,100,3.0,US,1635043579
472,matagami,49.7502,-77.6328,33.91,100,75,2.3,CA,1635043582
473,envira,-7.3,-70.2167,75.79,84,18,2.86,BR,1635043584
474,bhakkar,31.6253,71.0657,68.68,63,3,11.48,PK,1635043448
475,fuling,29.7022,107.3919,66.06,58,9,1.39,CN,1635043589
476,novyy urengoy,66.0833,76.6333,27.01,91,100,13.38,RU,1635043591
477,kampot,10.6167,104.1833,86.05,78,82,13.29,KH,1635043594
478,puerto suarez,-18.95,-57.8,94.55,35,83,9.6,BO,1635043596
479,zhongshu,24.5167,103.7667,51.19,97,100,3.29,CN,1635043598
480,lagunas,-5.2269,-75.6753,78.01,77,14,2.19,PE,1635043600
481,christchurch,-43.5333,172.6333,74.48,65,91,5.01,NZ,1635043500
482,port hardy,50.6996,-127.4199,50.0,93,20,3.44,CA,1635043609
483,bengkulu,-3.8004,102.2655,78.6,83,99,3.83,ID,1635043611
484,kupang,-10.1667,123.5833,90.18,62,20,9.22,ID,1635043531
485,martapura,-3.4167,114.85,89.69,62,40,3.44,ID,1635043616
486,alvand,36.3187,49.1678,42.93,47,1,3.8,IR,1635043618
487,gongzhuling,43.5008,124.8198,56.1,47,0,13.22,CN,1635043621
488,mount isa,-20.7333,139.5,96.57,23,22,12.66,AU,1635043401
489,ancud,-41.8697,-73.8203,48.42,77,82,9.42,CL,1635043595
490,tokomaru,-40.4667,175.5,59.11,92,100,0.76,NZ,1635043627
491,istisu,40.9457,48.0738,32.67,48,0,6.53,AZ,1635043629
492,high rock,26.6208,-78.2833,75.22,76,98,11.74,BS,1635043632
493,madang,-5.2246,145.7966,87.37,61,76,7.34,PG,1635043634
494,mayumba,-3.432,10.6554,76.06,90,100,3.27,GA,1635043637
495,letlhakane,-21.4167,25.5833,67.8,19,38,8.01,BW,1635043639
496,petropavlovka,50.6114,105.3196,41.79,50,90,0.83,RU,1635043643
497,aguimes,27.9054,-15.4461,66.83,66,75,11.5,ES,1635043646
498,bardiyah,31.7561,25.0865,67.08,70,0,2.93,LY,1635043648
499,port-gentil,-0.7193,8.7815,77.52,84,100,7.85,GA,1635043650
500,moroni,-11.7022,43.2551,77.13,78,81,1.97,KM,1635043653
501,balaipungut,1.05,101.2833,77.41,87,94,4.68,ID,1635043655
502,clyde river,70.4692,-68.5914,17.15,84,92,11.54,CA,1635043359
503,the valley,18.217,-63.0578,82.81,73,56,17.83,AI,1635043433
504,haapiti,-17.5667,-149.8667,80.33,87,99,19.42,PF,1635043662
505,antanifotsy,-19.65,47.3167,59.09,55,0,1.34,MG,1635043664
506,avera,33.194,-82.5271,60.71,63,0,3.02,US,1635043369
507,mujiayingzi,42.1167,118.7833,53.92,31,4,5.53,CN,1635043668
508,palmer,42.1584,-72.3287,51.17,70,90,0.0,US,1635043670
509,qandala,11.472,49.8728,78.19,68,94,1.5,SO,1635043673
510,el espino de santa rosa,8.1,-80.8167,77.18,95,100,4.74,PA,1635043676
511,oyem,1.5995,11.5793,65.98,99,97,2.08,GA,1635043678
512,boa vista,2.8197,-60.6733,82.38,69,20,3.44,BR,1635043680
513,luis correia,-2.8792,-41.6669,79.72,83,82,11.54,BR,1635043683
514,santa maria,-29.6842,-53.8069,61.9,94,90,5.75,BR,1635043428
515,magaria,12.9983,8.9099,82.33,39,99,4.94,NE,1635043687
516,cuenca,-2.8833,-78.9833,55.53,100,75,3.44,EC,1635043693
517,voslobeni,46.65,25.6333,37.81,92,9,2.1,RO,1635043696
518,sao paulo de olivenca,-3.3783,-68.8725,74.8,93,60,1.01,BR,1635043698
519,dhidhdhoo,6.8833,73.1,81.25,78,100,10.38,MV,1635043700
520,derzhavinsk,51.1,66.3167,43.74,73,24,15.5,KZ,1635043703
521,odweyne,9.4092,45.064,67.93,40,2,10.47,SO,1635043705
522,tarquinia,42.2482,11.7553,60.62,91,36,13.71,IT,1635043707
523,ossora,59.2353,163.0719,30.87,82,88,7.54,RU,1635043710
524,halifax,44.6453,-63.5724,60.8,97,100,1.01,CA,1635043564
525,aksaray,38.3726,34.0254,33.39,31,8,0.81,TR,1635043518
526,harlingen,26.1906,-97.6961,80.89,95,1,6.91,US,1635043596
527,swellendam,-34.0226,20.4417,48.58,81,27,2.39,ZA,1635043718
528,zabaykalsk,49.6333,117.3167,44.26,44,10,4.88,RU,1635043721
529,pareora,-44.4871,171.2132,64.18,75,71,7.52,NZ,1635043723
530,frontera,26.9333,-101.45,78.94,65,0,5.97,MX,1635043725
531,bubaque,11.2833,-15.8333,82.44,74,100,6.11,GW,1635043685
532,jinchang,38.4953,102.1739,50.41,52,67,3.29,CN,1635043730
533,buala,-8.145,159.5921,85.66,67,45,7.29,SB,1635043732
534,dori,14.0354,-0.0345,83.14,52,100,7.52,BF,1635043734
535,niksic,42.7731,18.9445,51.67,91,100,6.04,ME,1635043737
536,mae sai,20.4335,99.8762,74.52,98,100,1.54,TH,1635043739
537,namatanai,-3.6667,152.4333,84.4,71,78,7.11,PG,1635043717
538,sembakung,3.8167,117.25,87.73,79,100,1.86,ID,1635043744
539,garowe,8.4054,48.4845,72.81,78,19,8.14,SO,1635043746
540,bogandinskiy,56.8937,65.8938,37.67,91,19,9.28,RU,1635043748
541,dickinson,29.4608,-95.0513,72.18,85,75,5.01,US,1635043751
542,eyl,7.9803,49.8164,76.73,78,7,6.91,SO,1635043753
543,ishinomaki,38.4167,141.3,64.4,55,16,9.69,JP,1635043755
544,komsomolskiy,40.4272,71.7189,41.72,60,0,4.61,UZ,1635043758
545,pesqueria,25.7833,-100.05,78.04,72,0,5.28,MX,1635043762
546,hudson bay,52.85,-102.3842,33.49,82,7,7.38,CA,1635043764
547,cotonou,6.3654,2.4183,78.78,94,40,3.44,BJ,1635043767
548,misratah,32.3754,15.0925,76.32,52,100,10.22,LY,1635043769
549,sindor,62.8629,51.8905,27.37,90,35,2.33,RU,1635043772
550,heihe,50.2441,127.4902,48.78,45,3,4.47,CN,1635043774
551,mezhdurechensk,53.6942,88.0603,38.91,87,100,12.73,RU,1635043781
552,prince rupert,54.3161,-130.3201,46.09,76,96,16.11,CA,1635043540
553,mandiana,10.6333,-8.6833,73.06,90,75,2.1,GN,1635043785
554,sao jose do campestre,-6.3156,-35.7139,79.36,88,54,3.94,BR,1635043788
555,abu kamal,34.4506,40.9171,66.85,36,2,5.84,SY,1635043790
556,lowestoft,52.4752,1.7516,55.24,77,65,15.41,GB,1635043792
557,bandarbeyla,9.4942,50.8122,77.85,73,46,4.27,SO,1635043797
558,severnyy,50.677,36.5532,35.64,75,0,8.95,RU,1635043799
559,caucaia,-3.7361,-38.6531,81.03,76,40,8.05,BR,1635043625
560,portsmouth,50.799,-1.0913,57.11,69,46,5.01,GB,1635043647
561,guerrero negro,27.9769,-114.0611,66.47,81,8,17.72,MX,1635043805
562,kapoeta,4.7717,33.5903,79.34,44,29,5.06,SS,1635043808
563,santiago del estero,-27.7951,-64.2615,59.81,52,0,5.48,AR,1635043810
564,taranagar,28.6709,75.0351,70.09,68,96,12.53,IN,1635043813
565,moussoro,13.6408,16.4901,84.36,22,77,11.23,TD,1635043815
566,pangkalanbuun,-2.6833,111.6167,91.29,55,34,1.32,ID,1635043817
567,fairlie,55.756,-4.8556,55.42,91,100,14.0,GB,1635043820
